{
"type": "FeatureCollection",
"crs": { "type": "name", "properties": { "name": "urn:ogc:def:crs:EPSG::3857" } },
"features": [
{ "type": "Feature", "properties": { "#": 1, "USGS Gagename": "Nooksack Bl Cascade Creek", "USGS Gageno": 12205000, "lat": 48.90611111, "lon": -121.8430556, "gagecode": "NBCC", "category": "sudden events", "QRP=1.2yrs": 146.4747043, "bankfull_stage": 2.038304667, "range_FE": 53.74872539, "norm_range_FE": 0.366948857, "range_CE": 83.91691653, "norm_range_CE": 0.572910639, "norm_range_cumulative": 0.527446804, "trend_slope_percent_per_year": null, "trend_pvalue": null, "channel_fig_url": "https:\/\/imgur.com\/yo7Rinj.png", "dotplot_norm_range_CE": 14.322765975000001 }, "geometry": { "type": "Point", "coordinates": [ -13563506.906088519841433, 6258945.403354030102491 ] } },
{ "type": "Feature", "properties": { "#": 2, "USGS Gagename": "MF Nooksack Near Deming", "USGS Gageno": 12208000, "lat": 48.77944444, "lon": -122.1052778, "gagecode": "NND", "category": "monotonic", "QRP=1.2yrs": 154.6065707, "bankfull_stage": 2.0, "range_FE": 74.43829681, "norm_range_FE": 0.481469167, "range_CE": 19.22287818, "norm_range_CE": 0.12433416, "norm_range_cumulative": 0.297473398, "trend_slope_percent_per_year": -0.164776126, "trend_pvalue": 0.448198491, "channel_fig_url": "https:\/\/imgur.com\/B4EBrLK.png", "dotplot_norm_range_CE": 3.108354 }, "geometry": { "type": "Point", "coordinates": [ -13592697.347867211326957, 6237520.255040894262493 ] } },
{ "type": "Feature", "properties": { "#": 3, "USGS Gagename": "Nooksack At Ferndale", "USGS Gageno": 12213100, "lat": 48.845, "lon": -122.5880556, "gagecode": "NAF", "category": "multi-dec oscill", "QRP=1.2yrs": 713.2495703, "bankfull_stage": 5.329195622, "range_FE": 375.3844817, "norm_range_FE": 0.526301728, "range_CE": 102.8677428, "norm_range_CE": 0.144224052, "norm_range_cumulative": 0.240545497, "trend_slope_percent_per_year": null, "trend_pvalue": null, "channel_fig_url": "https:\/\/imgur.com\/VRdpjOY.png", "dotplot_norm_range_CE": 3.6056013 }, "geometry": { "type": "Point", "coordinates": [ -13646439.926729509606957, 6248601.944144695997238 ] } },
{ "type": "Feature", "properties": { "#": 4, "USGS Gagename": "Thunder Creek Near Newhalem", "USGS Gageno": 12175500, "lat": 48.67277778, "lon": -121.0716667, "gagecode": "TCNN", "category": "sudden events", "QRP=1.2yrs": 88.34856137, "bankfull_stage": 2.351329953, "range_FE": 47.00992086, "norm_range_FE": 0.532096054, "range_CE": 34.56062861, "norm_range_CE": 0.391184962, "norm_range_cumulative": 0.464885827, "trend_slope_percent_per_year": null, "trend_pvalue": null, "channel_fig_url": "https:\/\/imgur.com\/iytzVDT.png", "dotplot_norm_range_CE": 9.77962405 }, "geometry": { "type": "Point", "coordinates": [ -13477636.286536937579513, 6219519.924101078882813 ] } },
{ "type": "Feature", "properties": { "#": 5, "USGS Gagename": "Newhalem At Newhalem", "USGS Gageno": 12178100, "lat": 48.65611111, "lon": -121.2372222, "gagecode": "NAN", "category": "sudden events", "QRP=1.2yrs": 27.81674957, "bankfull_stage": 1.27456206, "range_FE": 22.27551601, "norm_range_FE": 0.800795073, "range_CE": 12.34114406, "norm_range_CE": 0.44365874, "norm_range_cumulative": 0.785605634, "trend_slope_percent_per_year": null, "trend_pvalue": null, "channel_fig_url": "https:\/\/imgur.com\/AYpt8Hd.png", "dotplot_norm_range_CE": 11.0914685 }, "geometry": { "type": "Point", "coordinates": [ -13496065.840494964271784, 6216710.816084762103856 ] } },
{ "type": "Feature", "properties": { "#": 6, "USGS Gagename": "Skagit At Newhalem", "USGS Gageno": 12178000, "lat": 48.67194444, "lon": -121.245, "gagecode": "SAN", "category": "monotonic", "QRP=1.2yrs": 649.2218616, "bankfull_stage": 27.24152068, "range_FE": 300.9380434, "norm_range_FE": 0.463536521, "range_CE": 54.63781816, "norm_range_CE": 0.084158931, "norm_range_cumulative": 0.398538725, "trend_slope_percent_per_year": 0.016528796, "trend_pvalue": 0.153311128, "channel_fig_url": "https:\/\/imgur.com\/AIasRux.png", "dotplot_norm_range_CE": 2.103973275 }, "geometry": { "type": "Point", "coordinates": [ -13496931.661230456084013, 6219379.445538625121117 ] } },
{ "type": "Feature", "properties": { "#": 7, "USGS Gagename": "Skagit At Marblemount", "USGS Gageno": 12181000, "lat": 48.53388889, "lon": -121.4286111, "gagecode": "SAM", "category": "monotonic", "QRP=1.2yrs": 998.9488738, "bankfull_stage": 2.933278498, "range_FE": 460.6176022, "norm_range_FE": 0.461102279, "range_CE": 85.7770768, "norm_range_CE": 0.085867334, "norm_range_cumulative": 0.411894172, "trend_slope_percent_per_year": 0.110566517, "trend_pvalue": 0.209763989, "channel_fig_url": "https:\/\/imgur.com\/e3h4vQj.png", "dotplot_norm_range_CE": 2.14668335 }, "geometry": { "type": "Point", "coordinates": [ -13517371.155386447906494, 6196139.012290399521589 ] } },
{ "type": "Feature", "properties": { "#": 8, "USGS Gagename": "Sauk Near Sauk", "USGS Gageno": 12189500, "lat": 48.42472222, "lon": -121.5672222, "gagecode": "SaNSa", "category": "multi-dec oscill", "QRP=1.2yrs": 686.0337621, "bankfull_stage": 2.968192172, "range_FE": 516.9255469, "norm_range_FE": 0.753498699, "range_CE": 107.117641, "norm_range_CE": 0.15614048, "norm_range_cumulative": 0.75500531, "trend_slope_percent_per_year": null, "trend_pvalue": null, "channel_fig_url": "https:\/\/imgur.com\/BySTDQF.png", "dotplot_norm_range_CE": 3.903512 }, "geometry": { "type": "Point", "coordinates": [ -13532801.272456742823124, 6177806.596417803317308 ] } },
{ "type": "Feature", "properties": { "#": 9, "USGS Gagename": "Sauk AB White Chuck Near Darrington", "USGS Gageno": 12186000, "lat": 48.16888889, "lon": -121.4694444, "gagecode": "SaUWC", "category": "multi-dec oscill", "QRP=1.2yrs": 257.6274155, "bankfull_stage": 2.471407474, "range_FE": 158.7460569, "norm_range_FE": 0.616184642, "range_CE": 40.77333405, "norm_range_CE": 0.158264733, "norm_range_cumulative": 0.516638306, "trend_slope_percent_per_year": null, "trend_pvalue": null, "channel_fig_url": "https:\/\/imgur.com\/Da8lho0.png", "dotplot_norm_range_CE": 3.956618325 }, "geometry": { "type": "Point", "coordinates": [ -13521916.697549857199192, 6134998.060852303169668 ] } },
{ "type": "Feature", "properties": { "#": 10, "USGS Gagename": "Skagit Near Concrete", "USGS Gageno": 12194000, "lat": 48.52444444, "lon": -121.7697222, "gagecode": "SNC", "category": "monotonic", "QRP=1.2yrs": 1640.810836, "bankfull_stage": 8.499216107000001, "range_FE": 854.8430186000001, "norm_range_FE": 0.52098816, "range_CE": 179.2055291, "norm_range_CE": 0.109217666, "norm_range_cumulative": 0.505658369, "trend_slope_percent_per_year": -0.037690081, "trend_pvalue": 0.007629699, "channel_fig_url": "https:\/\/imgur.com\/JOht6TG.png", "dotplot_norm_range_CE": 2.73044165 }, "geometry": { "type": "Point", "coordinates": [ -13555343.4693423807621, 6194551.440673174336553 ] } },
{ "type": "Feature", "properties": { "#": 11, "USGS Gagename": "Skagit Near Mt. Vernon", "USGS Gageno": 12200500, "lat": 48.445, "lon": -122.3341667, "gagecode": "SNM", "category": "multi-dec oscill", "QRP=1.2yrs": 1751.944379, "bankfull_stage": 7.846939527, "range_FE": 860.2597499, "norm_range_FE": 0.491031428, "range_CE": 417.7962776, "norm_range_CE": 0.238475766, "norm_range_cumulative": 0.376026976, "trend_slope_percent_per_year": null, "trend_pvalue": null, "channel_fig_url": "https:\/\/imgur.com\/gpduhq9.png", "dotplot_norm_range_CE": 5.96189415 }, "geometry": { "type": "Point", "coordinates": [ -13618177.143663443624973, 6181208.873005787841976 ] } },
{ "type": "Feature", "properties": { "#": 12, "USGS Gagename": "Stillaguamish Near Arlington", "USGS Gageno": 12167000, "lat": 48.26166667, "lon": -122.0463889, "gagecode": "SNA", "category": "multi-dec oscill", "QRP=1.2yrs": 482.9185413, "bankfull_stage": 2.982836966, "range_FE": 341.6077362, "norm_range_FE": 0.707381695, "range_CE": 85.02162881, "norm_range_CE": 0.176057909, "norm_range_cumulative": 0.694210191, "trend_slope_percent_per_year": null, "trend_pvalue": null, "channel_fig_url": "https:\/\/imgur.com\/IFXNduX.png", "dotplot_norm_range_CE": 4.401447725000001 }, "geometry": { "type": "Point", "coordinates": [ -13586141.865505835041404, 6150497.771716830320656 ] } },
{ "type": "Feature", "properties": { "#": 13, "USGS Gagename": "Skykomish Near Gold Bar", "USGS Gageno": 12134500, "lat": 47.8375, "lon": -121.6655556, "gagecode": "SNGB", "category": "monotonic", "QRP=1.2yrs": 704.0566751, "bankfull_stage": 3.737559575, "range_FE": 597.5250183000001, "norm_range_FE": 0.848688805, "range_CE": 103.1667875, "norm_range_CE": 0.146531936, "norm_range_cumulative": 0.861241349, "trend_slope_percent_per_year": 0.13476365, "trend_pvalue": 7.61e-12, "channel_fig_url": "https:\/\/imgur.com\/5sBq3b9.png", "dotplot_norm_range_CE": 3.6632984 }, "geometry": { "type": "Point", "coordinates": [ -13543747.696472713723779, 6079863.076888300478458 ] } },
{ "type": "Feature", "properties": { "#": 14, "USGS Gagename": "Sultan Near Sultan", "USGS Gageno": 12138160, "lat": 47.9075, "lon": -121.8141667, "gagecode": "SNS", "category": "monotonic", "QRP=1.2yrs": 195.7253597, "bankfull_stage": 3.0, "range_FE": 85.24557479000001, "norm_range_FE": 0.435536687, "range_CE": 16.72374302, "norm_range_CE": 0.085444947, "norm_range_cumulative": 0.274606993, "trend_slope_percent_per_year": 0.103384869, "trend_pvalue": 2.09e-08, "channel_fig_url": "https:\/\/imgur.com\/IF567yn.png", "dotplot_norm_range_CE": 2.136123675 }, "geometry": { "type": "Point", "coordinates": [ -13560291.008450942113996, 6091479.903673980385065 ] } },
{ "type": "Feature", "properties": { "#": 15, "USGS Gagename": "Pilchuk Near Snohomish", "USGS Gageno": 12155300, "lat": 47.935, "lon": -122.0719444, "gagecode": "PNS", "category": "monotonic", "QRP=1.2yrs": 101.8373672, "bankfull_stage": 4.485287445, "range_FE": 29.40019283, "norm_range_FE": 0.288697495, "range_CE": 20.17825336, "norm_range_CE": 0.198141939, "norm_range_cumulative": 0.298254827, "trend_slope_percent_per_year": 0.35076311, "trend_pvalue": 0.081404343, "channel_fig_url": "https:\/\/imgur.com\/qszPWYB.png", "dotplot_norm_range_CE": 4.953548475 }, "geometry": { "type": "Point", "coordinates": [ -13588986.690752804279327, 6096047.955247929319739 ] } },
{ "type": "Feature", "properties": { "#": 16, "USGS Gagename": "SF Tolt Near Carnation", "USGS Gageno": 12148000, "lat": 47.68944444, "lon": -121.7122222, "gagecode": "SFTNC", "category": "multi-dec oscill", "QRP=1.2yrs": 62.2970625, "bankfull_stage": 1.637154827, "range_FE": 44.53279871, "norm_range_FE": 0.714845884, "range_CE": 16.11320075, "norm_range_CE": 0.258651052, "norm_range_cumulative": 0.697419776, "trend_slope_percent_per_year": null, "trend_pvalue": null, "channel_fig_url": "https:\/\/imgur.com\/LhWtKDN.png", "dotplot_norm_range_CE": 6.4662763 }, "geometry": { "type": "Point", "coordinates": [ -13548942.59862176515162, 6055344.089507021941245 ] } },
{ "type": "Feature", "properties": { "#": 17, "USGS Gagename": "Snohomish Near Monroe", "USGS Gageno": 12150800, "lat": 47.83111111, "lon": -122.0472222, "gagecode": "SnoNM", "category": "monotonic", "QRP=1.2yrs": 1723.156603, "bankfull_stage": 4.504394677, "range_FE": 684.1531625, "norm_range_FE": 0.397034815, "range_CE": 412.1941973, "norm_range_CE": 0.239208785, "norm_range_cumulative": 0.436186674, "trend_slope_percent_per_year": -0.087061503, "trend_pvalue": 0.151351731, "channel_fig_url": "https:\/\/imgur.com\/KZ5k51R.png", "dotplot_norm_range_CE": 5.980219625 }, "geometry": { "type": "Point", "coordinates": [ -13586234.628037512302399, 6078803.591650733724236 ] } },
{ "type": "Feature", "properties": { "#": 18, "USGS Gagename": "Snoquamie Near Carnation", "USGS Gageno": 12149000, "lat": 47.66611111, "lon": -121.9241667, "gagecode": "SnoqNC", "category": "multi-dec oscill", "QRP=1.2yrs": 940.1193069, "bankfull_stage": 17.16216662, "range_FE": 479.6599253, "norm_range_FE": 0.510211759, "range_CE": 258.3182094, "norm_range_CE": 0.274771731, "norm_range_cumulative": 0.54736998, "trend_slope_percent_per_year": null, "trend_pvalue": null, "channel_fig_url": "https:\/\/imgur.com\/jn8XpHk.png", "dotplot_norm_range_CE": 6.869293275 }, "geometry": { "type": "Point", "coordinates": [ -13572536.152438201010227, 6051486.289028987288475 ] } },
{ "type": "Feature", "properties": { "#": 19, "USGS Gagename": "Snoqulamie Near Snoqualmie", "USGS Gageno": 12144500, "lat": 47.54527778, "lon": -121.8411111, "gagecode": "SnoqNS", "category": "monotonic", "QRP=1.2yrs": 691.85549, "bankfull_stage": 4.339439862, "range_FE": 281.9352754, "norm_range_FE": 0.407506017, "range_CE": 91.95009334, "norm_range_CE": 0.132903612, "norm_range_cumulative": 0.341135267, "trend_slope_percent_per_year": -0.072134403, "trend_pvalue": 2.48e-23, "channel_fig_url": "https:\/\/imgur.com\/SUiJnzQ.png", "dotplot_norm_range_CE": 3.3225903 }, "geometry": { "type": "Point", "coordinates": [ -13563290.445338673889637, 6031535.925858940929174 ] } },
{ "type": "Feature", "properties": { "#": 20, "USGS Gagename": "MF Snoqualmie Nr Tanner", "USGS Gageno": 12141300, "lat": 47.48611111, "lon": -121.6466667, "gagecode": "MFSnoq", "category": "monotonic", "QRP=1.2yrs": 406.6240785, "bankfull_stage": 3.269223812, "range_FE": 149.3393726, "norm_range_FE": 0.367266427, "range_CE": 38.22673145, "norm_range_CE": 0.094010004, "norm_range_cumulative": 0.192216682, "trend_slope_percent_per_year": -0.033649186, "trend_pvalue": 0.038528975, "channel_fig_url": "https:\/\/imgur.com\/eYtaD5r.png", "dotplot_norm_range_CE": 2.3502501 }, "geometry": { "type": "Point", "coordinates": [ -13541644.993743067607284, 6021783.898359714075923 ] } },
{ "type": "Feature", "properties": { "#": 21, "USGS Gagename": "SF Snoqualmie Nr Edgewick", "USGS Gageno": 12143600, "lat": 47.45277778, "lon": -121.7166667, "gagecode": "SNE", "category": "monotonic", "QRP=1.2yrs": 158.1537753, "bankfull_stage": 3.646314522, "range_FE": 57.99625238, "norm_range_FE": 0.366707986, "range_CE": 32.96814051, "norm_range_CE": 0.208456235, "norm_range_cumulative": 0.362436044, "trend_slope_percent_per_year": 0.052760172, "trend_pvalue": 0.422552032, "channel_fig_url": "https:\/\/imgur.com\/Z04mLnY.png", "dotplot_norm_range_CE": 5.211405875 }, "geometry": { "type": "Point", "coordinates": [ -13549437.358098600059748, 6016294.636257489211857 ] } },
{ "type": "Feature", "properties": { "#": 22, "USGS Gagename": "SF Snoqualmie Nr North Bend", "USGS Gageno": 12144000, "lat": 47.49305556, "lon": -121.7888889, "gagecode": "SNNB", "category": "monotonic", "QRP=1.2yrs": 125.167649, "bankfull_stage": 3.946154862, "range_FE": 47.76472653, "norm_range_FE": 0.381606005, "range_CE": 13.98891847, "norm_range_CE": 0.111761454, "norm_range_cumulative": 0.242476877, "trend_slope_percent_per_year": -0.243211352, "trend_pvalue": 0.011724293, "channel_fig_url": "https:\/\/imgur.com\/Mac02TP.png", "dotplot_norm_range_CE": 2.79403635 }, "geometry": { "type": "Point", "coordinates": [ -13557477.096626570448279, 6022927.934042977169156 ] } },
{ "type": "Feature", "properties": { "#": 23, "USGS Gagename": "Issaquah Creek Near Hobart", "USGS Gageno": 12120600, "lat": 47.4575, "lon": -122.0038889, "gagecode": "ISH", "category": "multi-dec oscill", "QRP=1.2yrs": 13.7692866, "bankfull_stage": 2.15644405, "range_FE": 6.07926166, "norm_range_FE": 0.441508833, "range_CE": 7.56556545, "norm_range_CE": 0.549452246, "norm_range_cumulative": 0.562035015, "trend_slope_percent_per_year": null, "trend_pvalue": null, "channel_fig_url": "https:\/\/imgur.com\/K9ufxNo.png", "dotplot_norm_range_CE": 13.73630615 }, "geometry": { "type": "Point", "coordinates": [ -13581410.787147121503949, 6017072.069815749302506 ] } },
{ "type": "Feature", "properties": { "#": 24, "USGS Gagename": "Issaquah Creek Near Issaquah", "USGS Gageno": 12121600, "lat": 47.5525, "lon": -122.0466667, "gagecode": "ISI", "category": "monotonic", "QRP=1.2yrs": 34.56981422, "bankfull_stage": 2.550412446, "range_FE": 11.14618093, "norm_range_FE": 0.322425248, "range_CE": 14.28923357, "norm_range_CE": 0.41334424, "norm_range_cumulative": 0.468668634, "trend_slope_percent_per_year": -0.276418773, "trend_pvalue": 0.058859532, "channel_fig_url": "https:\/\/imgur.com\/GhpmVbR.png", "dotplot_norm_range_CE": 10.333606 }, "geometry": { "type": "Point", "coordinates": [ -13586172.790060378611088, 6032727.067298379726708 ] } },
{ "type": "Feature", "properties": { "#": 25, "USGS Gagename": "Cedar At Renton", "USGS Gageno": 12119000, "lat": 47.48277778, "lon": -122.2022222, "gagecode": "CAR", "category": "reg response", "QRP=1.2yrs": 102.7901531, "bankfull_stage": 2.288998676, "range_FE": 93.57682384, "norm_range_FE": 0.910367589, "range_CE": 163.3778273, "norm_range_CE": 1.589430722, "norm_range_cumulative": 1.803693432, "trend_slope_percent_per_year": null, "trend_pvalue": null, "channel_fig_url": "https:\/\/imgur.com\/ahyYojS.png", "dotplot_norm_range_CE": 39.73576805 }, "geometry": { "type": "Point", "coordinates": [ -13603489.149110469967127, 6021234.815943464636803 ] } },
{ "type": "Feature", "properties": { "#": 26, "USGS Gagename": "Green Near Auburn", "USGS Gageno": 12113000, "lat": 47.3125, "lon": -122.2027778, "gagecode": "GNA", "category": "reg response", "QRP=1.2yrs": 277.0919746, "bankfull_stage": 18.9420225, "range_FE": 150.4641355, "norm_range_FE": 0.543011524, "range_CE": 54.39917606, "norm_range_CE": 0.196321731, "norm_range_cumulative": 0.493468064, "trend_slope_percent_per_year": null, "trend_pvalue": null, "channel_fig_url": "https:\/\/imgur.com\/YJk1stb.png", "dotplot_norm_range_CE": 4.908043275 }, "geometry": { "type": "Point", "coordinates": [ -13603550.99821955524385, 5993232.034538622945547 ] } },
{ "type": "Feature", "properties": { "#": 27, "USGS Gagename": "Greenwater At Greenwater", "USGS Gageno": 12097500, "lat": 47.15361111, "lon": -121.6344444, "gagecode": "GAG", "category": "multi-dec oscill", "QRP=1.2yrs": 70.25675623, "bankfull_stage": 2.194779532, "range_FE": 32.05131979, "norm_range_FE": 0.45620267, "range_CE": 6.294623582, "norm_range_CE": 0.089594566, "norm_range_cumulative": 0.225136808, "trend_slope_percent_per_year": null, "trend_pvalue": null, "channel_fig_url": "https:\/\/imgur.com\/qxgFpkB.png", "dotplot_norm_range_CE": 2.23986415 }, "geometry": { "type": "Point", "coordinates": [ -13540284.413530744612217, 5967183.458026787266135 ] } },
{ "type": "Feature", "properties": { "#": 28, "USGS Gagename": "White Near Auburn", "USGS Gageno": 12100496, "lat": 47.26611111, "lon": -122.2286111, "gagecode": "WNA", "category": "reg response", "QRP=1.2yrs": 309.9424747, "bankfull_stage": 24.89115557, "range_FE": 58.33669539, "norm_range_FE": 0.188217815, "range_CE": 203.9258946, "norm_range_CE": 0.657947559, "norm_range_cumulative": 0.358947314, "trend_slope_percent_per_year": null, "trend_pvalue": null, "channel_fig_url": "https:\/\/imgur.com\/UVjv4DX.png", "dotplot_norm_range_CE": 16.448688975 }, "geometry": { "type": "Point", "coordinates": [ -13606426.748021066188812, 5985618.866026467643678 ] } },
{ "type": "Feature", "properties": { "#": 29, "USGS Gagename": "Carbon Near Fairfax", "USGS Gageno": 12094000, "lat": 47.02805556, "lon": -122.0313889, "gagecode": "CNF", "category": "monotonic", "QRP=1.2yrs": 112.1778236, "bankfull_stage": 3.572396335, "range_FE": 51.1134205, "norm_range_FE": 0.455646391, "range_CE": 13.63655299, "norm_range_CE": 0.121561932, "norm_range_cumulative": 0.205263094, "trend_slope_percent_per_year": 0.20525952, "trend_pvalue": 0.482394048, "channel_fig_url": "https:\/\/imgur.com\/VyDmAab.png", "dotplot_norm_range_CE": 3.0390483 }, "geometry": { "type": "Point", "coordinates": [ -13584472.073143934831023, 5946654.656818228773773 ] } },
{ "type": "Feature", "properties": { "#": 30, "USGS Gagename": "Puyallup Near Orting", "USGS Gageno": 12093500, "lat": 47.03944444, "lon": -122.2066667, "gagecode": "PNO", "category": "multi-dec oscill", "QRP=1.2yrs": 151.1852878, "bankfull_stage": 2.284352454, "range_FE": 76.8126457, "norm_range_FE": 0.50806958, "range_CE": 44.46278094, "norm_range_CE": 0.294094628, "norm_range_cumulative": 0.517440792, "trend_slope_percent_per_year": null, "trend_pvalue": null, "channel_fig_url": "https:\/\/imgur.com\/1YYQ2Ez.png", "dotplot_norm_range_CE": 7.3523657 }, "geometry": { "type": "Point", "coordinates": [ -13603983.908587303012609, 5948514.78724243119359 ] } },
{ "type": "Feature", "properties": { "#": 31, "USGS Gagename": "Puyallup At Puyallup", "USGS Gageno": 12101500, "lat": 47.20861111, "lon": -122.3258333, "gagecode": "PAP", "category": "monotonic", "QRP=1.2yrs": 606.4457446, "bankfull_stage": 6.048428412, "range_FE": 248.9416119, "norm_range_FE": 0.4104928, "range_CE": 114.6062204, "norm_range_CE": 0.188980171, "norm_range_cumulative": 0.342491448, "trend_slope_percent_per_year": 0.136843765, "trend_pvalue": 0.000101968, "channel_fig_url": "https:\/\/imgur.com\/f369AcL.png", "dotplot_norm_range_CE": 4.724504275 }, "geometry": { "type": "Point", "coordinates": [ -13617249.473818868398666, 5976191.438730322755873 ] } },
{ "type": "Feature", "properties": { "#": 32, "USGS Gagename": "Nisqually Near National", "USGS Gageno": 12082500, "lat": 46.75277778, "lon": -122.0825, "gagecode": "NNN", "category": "sudden events", "QRP=1.2yrs": 152.6408295, "bankfull_stage": 2.021632424, "range_FE": 103.0812326, "norm_range_FE": 0.675318871, "range_CE": 136.8756254, "norm_range_CE": 0.896716992, "norm_range_cumulative": 1.062508614, "trend_slope_percent_per_year": null, "trend_pvalue": null, "channel_fig_url": "https:\/\/imgur.com\/1Fs93N3.png", "dotplot_norm_range_CE": 22.4179248 }, "geometry": { "type": "Point", "coordinates": [ -13590161.734769821166992, 5901814.060879142954946 ] } },
{ "type": "Feature", "properties": { "#": 33, "USGS Gagename": "Mineral Creek Near Mineral", "USGS Gageno": 12083000, "lat": 46.74444444, "lon": -122.1433333, "gagecode": "MNM", "category": "multi-dec oscill", "QRP=1.2yrs": 103.6232027, "bankfull_stage": 3.652209555, "range_FE": 26.61978993, "norm_range_FE": 0.256890245, "range_CE": 29.26329514, "norm_range_CE": 0.282400991, "norm_range_cumulative": 0.472495894, "trend_slope_percent_per_year": null, "trend_pvalue": null, "channel_fig_url": "https:\/\/imgur.com\/bMbH6Vv.png", "dotplot_norm_range_CE": 7.060024775 }, "geometry": { "type": "Point", "coordinates": [ -13596933.666749095544219, 5900460.204642996191978 ] } },
{ "type": "Feature", "properties": { "#": 34, "USGS Gagename": "Nisqually At La Grande", "USGS Gageno": 12086500, "lat": 46.83944444, "lon": -122.3280556, "gagecode": "NALG", "category": "reg response", "QRP=1.2yrs": 259.6053138, "bankfull_stage": 2.170770761, "range_FE": 177.8505049, "norm_range_FE": 0.685080372, "range_CE": 115.3907743, "norm_range_CE": 0.44448541, "norm_range_cumulative": 0.606878988, "trend_slope_percent_per_year": null, "trend_pvalue": null, "channel_fig_url": "https:\/\/imgur.com\/JtIUeVF.png", "dotplot_norm_range_CE": 11.11213525 }, "geometry": { "type": "Point", "coordinates": [ -13617496.859123257920146, 5915906.581517240032554 ] } },
{ "type": "Feature", "properties": { "#": 35, "USGS Gagename": "Cowlitz At Packwood", "USGS Gageno": 14226500, "lat": 46.61305556, "lon": -121.6780556, "gagecode": "CAP", "category": "sudden events", "QRP=1.2yrs": 421.6542838, "bankfull_stage": 2.863747898, "range_FE": 203.5408883, "norm_range_FE": 0.48271984, "range_CE": 199.3407507, "norm_range_CE": 0.472758747, "norm_range_cumulative": 0.493047351, "trend_slope_percent_per_year": null, "trend_pvalue": null, "channel_fig_url": "https:\/\/imgur.com\/uSfcVXT.png", "dotplot_norm_range_CE": 11.818968675 }, "geometry": { "type": "Point", "coordinates": [ -13545139.190107628703117, 5879142.022637438960373 ] } },
{ "type": "Feature", "properties": { "#": 36, "USGS Gagename": "Cowlitz Bl Mayfield Dam", "USGS Gageno": 14238000, "lat": 46.51055556, "lon": -122.615, "gagecode": "CMD", "category": "multi-dec oscill", "QRP=1.2yrs": 796.9346913000001, "bankfull_stage": 5.48155448, "range_FE": 770.2182273, "norm_range_FE": 0.966475968, "range_CE": 143.8014644, "norm_range_CE": 0.180443223, "norm_range_cumulative": 0.695721976, "trend_slope_percent_per_year": null, "trend_pvalue": null, "channel_fig_url": "https:\/\/imgur.com\/IgwcwOa.png", "dotplot_norm_range_CE": 4.511080575 }, "geometry": { "type": "Point", "coordinates": [ -13649439.363617239519954, 5862547.022267808206379 ] } },
{ "type": "Feature", "properties": { "#": 37, "USGS Gagename": "Cowlitz At Castle Rock", "USGS Gageno": 14243000, "lat": 46.275, "lon": -122.9133333, "gagecode": "CACR", "category": "sudden events", "QRP=1.2yrs": 2268.868821, "bankfull_stage": 15.23293201, "range_FE": 751.1759042, "norm_range_FE": 0.331079478, "range_CE": 1642.872613, "norm_range_CE": 0.724093256, "norm_range_cumulative": 0.977706374, "trend_slope_percent_per_year": null, "trend_pvalue": null, "channel_fig_url": "https:\/\/imgur.com\/bBSNhl4.png", "dotplot_norm_range_CE": 18.1023314 }, "geometry": { "type": "Point", "coordinates": [ -13682649.674659915268421, 5824528.21299262624234 ] } },
{ "type": "Feature", "properties": { "#": 38, "USGS Gagename": "Newaukum Near Chehalis", "USGS Gageno": 12025000, "lat": 46.62027778, "lon": -122.9438889, "gagecode": "NRC", "category": "multi-dec oscill", "QRP=1.2yrs": 135.50433, "bankfull_stage": 61.13070352, "range_FE": 77.40760195, "norm_range_FE": 0.57125556, "range_CE": 49.50383121, "norm_range_CE": 0.365330253, "norm_range_cumulative": 0.569923898, "trend_slope_percent_per_year": null, "trend_pvalue": null, "channel_fig_url": "https:\/\/imgur.com\/mKPIEQN.png", "dotplot_norm_range_CE": 9.133256325 }, "geometry": { "type": "Point", "coordinates": [ -13686051.10849279910326, 5880312.501301301643252 ] } },
{ "type": "Feature", "properties": { "#": 39, "USGS Gagename": "Chehalis Near Doty", "USGS Gageno": 12020000, "lat": 46.6175, "lon": -123.2763889, "gagecode": "ChND", "category": "multi-dec oscill", "QRP=1.2yrs": 191.205087, "bankfull_stage": 95.49973227, "range_FE": 120.4896947, "norm_range_FE": 0.630159462, "range_CE": 37.6541868, "norm_range_CE": 0.196930884, "norm_range_cumulative": 0.472181377, "trend_slope_percent_per_year": null, "trend_pvalue": null, "channel_fig_url": "https:\/\/imgur.com\/fWyabKo.png", "dotplot_norm_range_CE": 4.9232721 }, "geometry": { "type": "Point", "coordinates": [ -13723064.839181562885642, 5879862.298226220533252 ] } },
{ "type": "Feature", "properties": { "#": 40, "USGS Gagename": "Chehalis Near Grand Mound", "USGS Gageno": 12027500, "lat": 46.77611111, "lon": -123.0344444, "gagecode": "CNGM", "category": "multi-dec oscill", "QRP=1.2yrs": 658.9823343, "bankfull_stage": 43.12211126, "range_FE": 362.9884678, "norm_range_FE": 0.550831864, "range_CE": 153.9973009, "norm_range_CE": 0.233689574, "norm_range_cumulative": 0.596392094, "trend_slope_percent_per_year": null, "trend_pvalue": null, "channel_fig_url": "https:\/\/imgur.com\/dX8fxrL.png", "dotplot_norm_range_CE": 5.84223935 }, "geometry": { "type": "Point", "coordinates": [ -13696131.700641330331564, 5905605.968850412406027 ] } },
{ "type": "Feature", "properties": { "#": 41, "USGS Gagename": "Chehalis At Porter", "USGS Gageno": 12031000, "lat": 46.93944444, "lon": -123.3130556, "gagecode": "ChAP", "category": "monotonic", "QRP=1.2yrs": 884.2175716, "bankfull_stage": 14.74377046, "range_FE": 251.2800204, "norm_range_FE": 0.284183473, "range_CE": 212.4029997, "norm_range_CE": 0.240215764, "norm_range_cumulative": 0.332403149, "trend_slope_percent_per_year": 0.137938984, "trend_pvalue": 2.18e-09, "channel_fig_url": "https:\/\/imgur.com\/ZfaQ2qv.png", "dotplot_norm_range_CE": 6.0053941 }, "geometry": { "type": "Point", "coordinates": [ -13727146.557554630562663, 5932195.458976212888956 ] } },
{ "type": "Feature", "properties": { "#": 42, "USGS Gagename": "Satsop At Satsop", "USGS Gageno": 12035000, "lat": 47.00083333, "lon": -123.4936111, "gagecode": "SAS", "category": "multi-dec oscill", "QRP=1.2yrs": 646.8554044, "bankfull_stage": 11.2312444, "range_FE": 336.4376431, "norm_range_FE": 0.520112595, "range_CE": 310.2672039, "norm_range_CE": 0.479654652, "norm_range_cumulative": 0.668121325, "trend_slope_percent_per_year": null, "trend_pvalue": null, "channel_fig_url": "https:\/\/imgur.com\/n5XYNUR.png", "dotplot_norm_range_CE": 11.9913663 }, "geometry": { "type": "Point", "coordinates": [ -13747245.903874557465315, 5942210.094158043153584 ] } },
{ "type": "Feature", "properties": { "#": 43, "USGS Gagename": "NF Skokomish Near Hoodsport", "USGS Gageno": 12056500, "lat": 47.51444444, "lon": -123.3286111, "gagecode": "NFSNH", "category": "sudden events", "QRP=1.2yrs": 135.6342835, "bankfull_stage": 1.988167411, "range_FE": 69.73738956, "norm_range_FE": 0.51415754, "range_CE": 35.9015538, "norm_range_CE": 0.264693799, "norm_range_cumulative": 0.573631262, "trend_slope_percent_per_year": null, "trend_pvalue": null, "channel_fig_url": "https:\/\/imgur.com\/vh8el06.png", "dotplot_norm_range_CE": 6.617344975 }, "geometry": { "type": "Point", "coordinates": [ -13728878.187893668189645, 6026452.510528254322708 ] } },
{ "type": "Feature", "properties": { "#": 44, "USGS Gagename": "Skokomish Near Potlatch", "USGS Gageno": 12061500, "lat": 47.31, "lon": -123.1730556, "gagecode": "SNP", "category": "reg response", "QRP=1.2yrs": 361.9221755, "bankfull_stage": 4.45762364, "range_FE": 274.7760227, "norm_range_FE": 0.759213006, "range_CE": 279.4694281, "norm_range_CE": 0.772181002, "norm_range_cumulative": 1.171277814, "trend_slope_percent_per_year": null, "trend_pvalue": null, "channel_fig_url": "https:\/\/imgur.com\/kOnNt6J.png", "dotplot_norm_range_CE": 19.30452505 }, "geometry": { "type": "Point", "coordinates": [ -13711561.828843573108315, 5992821.573736629448831 ] } },
{ "type": "Feature", "properties": { "#": 45, "USGS Gagename": "Huge Creek Near Wauna", "USGS Gageno": 12073500, "lat": 47.38944444, "lon": -122.6977778, "gagecode": "HNW", "category": "monotonic", "QRP=1.2yrs": 5.017075289, "bankfull_stage": 1.119450706, "range_FE": 2.107759939, "norm_range_FE": 0.420117263, "range_CE": 1.125829515, "norm_range_CE": 0.224399565, "norm_range_cumulative": 0.382080129, "trend_slope_percent_per_year": 0.159697937, "trend_pvalue": 0.30087159, "channel_fig_url": "https:\/\/imgur.com\/84KZnct.png", "dotplot_norm_range_CE": 5.609989125 }, "geometry": { "type": "Point", "coordinates": [ -13658654.146162224933505, 6005874.613545445725322 ] } },
{ "type": "Feature", "properties": { "#": 46, "USGS Gagename": "Duckabush Near Brinnon", "USGS Gageno": 12054000, "lat": 47.68416667, "lon": -123.0102778, "gagecode": "DNB", "category": "multi-dec oscill", "QRP=1.2yrs": 97.5982907, "bankfull_stage": 1.825171847, "range_FE": 49.435118, "norm_range_FE": 0.506516227, "range_CE": 29.54340486, "norm_range_CE": 0.302704122, "norm_range_cumulative": 0.355336704, "trend_slope_percent_per_year": null, "trend_pvalue": null, "channel_fig_url": "https:\/\/imgur.com\/tCPlWOI.png", "dotplot_norm_range_CE": 7.56760305 }, "geometry": { "type": "Point", "coordinates": [ -13693441.487035123631358, 6054471.341941575519741 ] } },
{ "type": "Feature", "properties": { "#": 47, "USGS Gagename": "Dungeness Near Sequim", "USGS Gageno": 12048000, "lat": 48.01444444, "lon": -123.1313889, "gagecode": "DNS", "category": "monotonic", "QRP=1.2yrs": 80.826143, "bankfull_stage": 1.840411999, "range_FE": 36.88984752, "norm_range_FE": 0.456409846, "range_CE": 10.51249054, "norm_range_CE": 0.130062999, "norm_range_cumulative": 0.415863392, "trend_slope_percent_per_year": -0.016850206, "trend_pvalue": 0.7232162, "channel_fig_url": "https:\/\/imgur.com\/G54pC4A.png", "dotplot_norm_range_CE": 3.251574975 }, "geometry": { "type": "Point", "coordinates": [ -13706923.513016536831856, 6109258.211524910293519 ] } },
{ "type": "Feature", "properties": { "#": 48, "USGS Gagename": "Hoh Near Forks", "USGS Gageno": 12041200, "lat": 47.80694444, "lon": -124.2497222, "gagecode": "HNF", "category": "multi-dec oscill", "QRP=1.2yrs": 758.7891386, "bankfull_stage": 3.634395118, "range_FE": 338.7760515, "norm_range_FE": 0.446469295, "range_CE": 165.0568878, "norm_range_CE": 0.217526687, "norm_range_cumulative": 0.374850523, "trend_slope_percent_per_year": null, "trend_pvalue": null, "channel_fig_url": "https:\/\/imgur.com\/xwSRAaV.png", "dotplot_norm_range_CE": 5.438167175 }, "geometry": { "type": "Point", "coordinates": [ -13831415.806509697809815, 6074797.153082146309316 ] } },
{ "type": "Feature", "properties": { "#": 49, "USGS Gagename": "Queets Near Clearwater", "USGS Gageno": 12040500, "lat": 47.53805556, "lon": -124.3144444, "gagecode": "QNC", "category": "monotonic", "QRP=1.2yrs": 1018.873016, "bankfull_stage": 5.030396179, "range_FE": 885.6076321, "norm_range_FE": 0.869203147, "range_CE": 257.1416497, "norm_range_CE": 0.252378506, "norm_range_cumulative": 0.826449357, "trend_slope_percent_per_year": 0.214813812, "trend_pvalue": 4.74e-10, "channel_fig_url": "https:\/\/imgur.com\/6BRMeRh.png", "dotplot_norm_range_CE": 6.30946265 }, "geometry": { "type": "Point", "coordinates": [ -13838620.648856719955802, 6030344.948523097671568 ] } },
{ "type": "Feature", "properties": { "#": 50, "USGS Gagename": "Deschutes At Tumwater", "USGS Gageno": 12080010, "lat": 47.01194444, "lon": -122.9019444, "gagecode": "DAT", "category": "monotonic", "QRP=1.2yrs": 120.9151764, "bankfull_stage": 9.431077436000001, "range_FE": 22.89857873, "norm_range_FE": 0.18937721, "range_CE": 38.15415259, "norm_range_CE": 0.315544779, "norm_range_cumulative": 0.180657267, "trend_slope_percent_per_year": 0.188962357, "trend_pvalue": 0.371138025, "channel_fig_url": "https:\/\/imgur.com\/eVjZXWY.png", "dotplot_norm_range_CE": 7.888619475 }, "geometry": { "type": "Point", "coordinates": [ -13681381.868111221119761, 5944023.927026228047907 ] } }
]
}
